{
"type": "FeatureCollection",
"name": "dumpsites",
"crs": { "type": "name", "properties": { "name": "urn:ogc:def:crs:OGC:1.3:CRS84" } },
"features": [
{ "type": "Feature", "properties": { "S/N": 1, "Name": "Apapa road", "Latitude": 6.481665, "Longitude": 3.377097, "Date": "24-Apr", "Image Link": "https://raw.githubusercontent.com/DonToba/Dumpsitedemo/refs/heads/main/Apapa%20road.jpg" }, "geometry": { "type": "Point", "coordinates": [ 3.377097, 6.481665 ] } },
{ "type": "Feature", "properties": { "S/N": 2, "Name": "Ojota", "Latitude": 6.591279, "Longitude": 3.381768, "Date": "24-Mar", "Image Link": "https://raw.githubusercontent.com/DonToba/Dumpsitedemo/refs/heads/main/Ojota.jpg" }, "geometry": { "type": "Point", "coordinates": [ 3.381768, 6.591279 ] } },
{ "type": "Feature", "properties": { "S/N": 3, "Name": "image1", "Latitude": 6.455379, "Longitude": 3.385827, "Date": "24-Feb", "Image Link": "https://raw.githubusercontent.com/DonToba/Dumpsitedemo/refs/heads/main/image1.jpg" }, "geometry": { "type": "Point", "coordinates": [ 3.385827, 6.455379 ] } },
{ "type": "Feature", "properties": { "S/N": 4, "Name": "image2", "Latitude": 6.456888, "Longitude": 3.386736, "Date": "24-Feb", "Image Link": "https://raw.githubusercontent.com/DonToba/Dumpsitedemo/refs/heads/main/image2.jpg" }, "geometry": { "type": "Point", "coordinates": [ 3.386736, 6.456888 ] } },
{ "type": "Feature", "properties": { "S/N": 5, "Name": "image3", "Latitude": 6.456321, "Longitude": 3.386046, "Date": "24-Feb", "Image Link": "https://raw.githubusercontent.com/DonToba/Dumpsitedemo/refs/heads/main/image3.jpg" }, "geometry": { "type": "Point", "coordinates": [ 3.386046, 6.456321 ] } },
{ "type": "Feature", "properties": { "S/N": 6, "Name": "image4", "Latitude": 6.458873, "Longitude": 3.389865, "Date": "24-Feb", "Image Link": "https://raw.githubusercontent.com/DonToba/Dumpsitedemo/refs/heads/main/image4.jpg" }, "geometry": { "type": "Point", "coordinates": [ 3.389865, 6.458873 ] } }
]
}
